"station_id","station_name","lon","lat","city","city_sn","town","town_sn"
"C0A520","山佳","121.393789","24.976719","新北市","06","樹林區","046"
"C0A560","福山","121.494583","24.778333","新北市","06","烏來區","061"
"C0R620","墾雷","120.847244","21.90265","屏東縣","20","恆春鎮","350"
"C0AC60","三峽","121.3615","24.940806","新北市","06","三峽區","057"
"C0X190","安平","120.144111","22.994972","臺南市","04","安平區","276"
"C0K390","土庫","120.387436","23.680772","雲林縣","16","土庫鎮","189"
"C0A880","福隆","121.934167","25.019167","新北市","06","貢寮區","027"
"C0UA70","桃源谷","121.880658","24.964408","宜蘭縣","07","頭城鎮","051"
"C0I530","小奇萊","121.287556","24.13355","南投縣","13","仁愛鄉","122"
"C0C660","楊梅","121.134833","24.914139","桃園市","08","楊梅區","056"
"C0G740","大城","120.312789","23.854225","彰化縣","14","大城鄉","169"
"C0M670","大林","120.450281","23.602361","嘉義縣","17","大林鎮","202"
"C0T9M0","靜浦","121.486667","23.456944","花蓮縣","21","豐濱鄉","188"
"C0X130","官田","120.307528","23.195028","臺南市","04","官田區","248"
"C0Z061","玉里","121.331556","23.323306","花蓮縣","21","玉里鎮","221"
"C0F9N0","大里","120.692194","24.094389","臺中市","02","大里區","141"
"C0M730","嘉義市東區","120.452408","23.459414","嘉義市","09","東區","217"
"C0M740","六腳","120.2825","23.494611","嘉義縣","17","六腳鄉","214"
"C0F9M0","豐原","120.712333","24.256306","臺中市","02","豐原區","117"
"C0U750","龜山島","121.944947","24.843392","宜蘭縣","07","頭城鎮","051"
"C0F9T0","西屯","120.632861","24.182028","臺中市","02","西屯區","125"
"C0M530","奮起湖","120.691111","23.495833","嘉義縣","17","竹崎鄉","215"
"C0K400","斗六","120.532972","23.722303","雲林縣","16","斗六市","355"
"C0T9A0","月眉山","121.531686","23.811736","花蓮縣","21","壽豐鄉","161"
"C0K460","斗南","120.470231","23.680478","雲林縣","16","斗南鎮","193"
"C0S710","鹿野","121.114908","22.919517","臺東縣","22","鹿野鄉","274"
"C0I370","魚池","120.933219","23.897478","南投縣","13","魚池鄉","164"
"C0V400","阿公店","120.347444","22.805944","高雄市","05","燕巢區","296"
"C0S750","向陽","120.978056","23.25","臺東縣","22","海端鄉","240"
"C0M680","太保","120.323303","23.456792","嘉義縣","17","太保市","218"
"C0R650","竹田","120.535392","22.586642","屏東縣","20","竹田鄉","322"
"C0X100","臺南市北區","120.186333","23.012167","臺南市","04","北區","357"
"C0E740","造橋","120.856583","24.63875","苗栗縣","11","造橋鄉","090"
"C0X220","學甲","120.174072","23.2321","臺南市","04","學甲區","239"
"C0E550","明德","120.877222","24.58525","苗栗縣","11","頭屋鄉","094"
"C0UA40","西德山","121.744417","24.562447","宜蘭縣","07","南澳鄉","093"
"C0R560","新園","120.4535","22.545194","屏東縣","20","新園鄉","333"
"C0X060","下營","120.248153","23.228686","臺南市","04","下營區","242"
"C0K560","棋山","120.595289","23.688211","雲林縣","16","古坑鄉","196"
"C0R510","萬丹","120.482389","22.589611","屏東縣","20","萬丹鄉","327"
"C0F9P0","清水","120.554083","24.314028","臺中市","02","清水區","112"
"C0AH40","平等","121.568856","25.130925","臺北市","01","士林區","007"
"C0R150","三地門","120.631889","22.711667","屏東縣","20","內埔鄉","310"
"C0O970","虎頭埤","120.339806","23.023139","臺南市","04","新化區","267"
"C0G720","溪州","120.490944","23.853347","彰化縣","14","溪州鄉","174"
"C0F0B0","石岡","120.769478","24.277822","臺中市","02","石岡區","116"
"C0S690","太麻里","120.977275","22.610825","臺東縣","22","太麻里鄉","312"
"C0R170","屏東","120.483611","22.661944","屏東縣","20","屏東市","309"
"C0G890","伸港","120.476167","24.150528","彰化縣","14","伸港鄉","126"
"C0U870","大礁溪","121.666839","24.792836","宜蘭縣","07","礁溪鄉","065"
"C0X280","將軍","120.127656","23.216733","臺南市","04","將軍區","245"
"C0AC40","大屯山","121.514167","25.177333","臺北市","01","北投區","006"
"C0I540","奇萊稜線A","121.318297","24.111019","南投縣","13","仁愛鄉","122"
"C0I420","國姓","120.846925","24.039567","南投縣","13","國姓鄉","139"
"C0V620","永安","120.228806","22.824944","高雄市","05","永安區","293"
"C0R470","高樹","120.592722","22.828222","屏東縣","20","高樹鄉","290"
"C0K430","褒忠","120.295503","23.692672","雲林縣","16","褒忠鄉","191"
"C0H960","草屯","120.672194","23.975444","南投縣","13","草屯鎮","152"
"C0A930","三和","121.586997","25.234933","新北市","06","金山區","003"
"C0Z100","東華","121.541694","23.897056","花蓮縣","21","壽豐鄉","161"
"C0AI00","五股","121.419053","25.076228","新北市","06","五股區","017"
"C0V350","溪埔","120.438611","22.740278","高雄市","05","大樹區","300"
"C0V500","旗津","120.277889","22.590417","高雄市","05","旗津區","329"
"C0Z170","卓溪","121.295197","23.346047","花蓮縣","21","卓溪鄉","207"
"C0U710","太平山","121.5175","24.507222","宜蘭縣","07","大同鄉","081"
"C0W120","西嶼","119.460328","23.564311","澎湖縣","23","西嶼鄉","200"
"C0M770","嘉義梅山","120.547464","23.587147","嘉義縣","17","梅山鄉","210"
"C0A9B0","石牌","121.505889","25.117583","臺北市","01","北投區","006"
"C0F9Y0","桃山A","121.295628","24.434519","臺中市","02","和平區","104"
"C0E790","卓蘭","120.816194","24.314833","苗栗縣","11","卓蘭鎮","109"
"C0O810","曾文","120.489222","23.221472","臺南市","04","楠西區","246"
"C0R520","崁頂","120.498972","22.516639","屏東縣","20","崁頂鄉","334"
"C0G880","二水","120.609028","23.812778","彰化縣","14","二水鄉","177"
"C0X270","柳營","120.365458","23.258981","臺南市","04","柳營區","238"
"C0G840","北斗","120.506528","23.879222","彰化縣","14","北斗鎮","171"
"C0Z220","和平林道","121.648142","24.345722","花蓮縣","21","秀林鄉","108"
"C0R260","春日","120.62025","22.372167","屏東縣","20","春日鄉","343"
"C0U770","南澳","121.802036","24.451153","宜蘭縣","07","南澳鄉","093"
"C0U950","鶯子嶺","121.784231","24.899333","宜蘭縣","07","頭城鎮","051"
"C0A950","鼻頭角","121.915278","25.130833","新北市","06","瑞芳區","018"
"C0G760","高鐵彰化","120.566469","23.877003","彰化縣","14","田中鎮","170"
"C0Z080","富源","121.370389","23.58975","花蓮縣","21","光復鄉","194"
"C0X110","臺南市南區","120.180417","22.963028","臺南市","04","南區","281"
"C0D560","竹東","121.049861","24.76925","新竹縣","10","竹東鎮","073"
"C0V310","美濃","120.511111","22.900556","高雄市","05","美濃區","282"
"C0G640","鹿港","120.422222","24.076944","彰化縣","14","鹿港鎮","140"
"C0G620","芬園","120.613056","24.017222","彰化縣","14","芬園鄉","148"
"C0S890","關山","121.166931","23.0413","臺東縣","22","關山鎮","262"
"C0K240","草嶺","120.685342","23.597319","雲林縣","16","古坑鄉","196"
"C0AD50","鶯歌","121.33725","24.953","新北市","06","鶯歌區","054"
"C0X200","左鎮","120.400444","23.058528","臺南市","04","左鎮區","266"
"C0I380","集集","120.793328","23.829972","南投縣","13","集集鎮","176"
"C0A9A0","大直","121.534722","25.079722","臺北市","01","中山區","026"
"C0U900","內城","121.679461","24.719928","宜蘭縣","07","員山鄉","074"
"C0O830","北寮","120.486944","23.081611","臺南市","04","南化區","244"
"C0F9U0","南屯","120.630111","24.138861","臺中市","02","南屯區","129"
"C0T820","天祥","121.4875","24.181389","花蓮縣","21","秀林鄉","108"
"C0S760","紅石","121.12","23.071389","臺東縣","22","海端鄉","240"
"C0Z020","明里","121.254167","23.210556","花蓮縣","21","富里鄉","241"
"C0Z230","和平","121.761903","24.308961","花蓮縣","21","秀林鄉","108"
"C0X160","仁德","120.249778","22.970111","臺南市","04","仁德區","279"
"C0C490","八德","121.275","24.930528","桃園市","08","八德區","052"
"C0F9O0","潭子","120.695833","24.21475","臺中市","02","潭子區","123"
"CM0010","花博豐原","120.707025","24.258617","臺中市","02","豐原區","117"
"C0Z190","富世","121.621542","24.149236","花蓮縣","21","秀林鄉","108"
"C0C540","大園","121.217778","25.049444","桃園市","08","大園區","019"
"C0F970","大坑","120.714139","24.174889","臺中市","02","北屯區","124"
"C0M520","東後寮","120.239936","23.371644","嘉義縣","17","義竹鄉","229"
"C0F9I0","神岡","120.650306","24.274222","臺中市","02","神岡區","114"
"C0M690","水上","120.380792","23.421475","嘉義縣","17","水上鄉","223"
"C0G770","福興","120.429528","24.042972","彰化縣","14","福興鄉","145"
"C0V690","鼓山","120.2675","22.625139","高雄市","05","鼓山區","316"
"C0D360","梅花","121.200361","24.680119","新竹縣","10","尖石鄉","077"
"C0Z210","瑞穗","121.382086","23.525708","花蓮縣","21","瑞穗鄉","209"
"C0V670","楠梓","120.277917","22.721528","高雄市","05","楠梓區","305"
"C0Z290","赤柯山","121.374825","23.370733","花蓮縣","21","玉里鎮","221"
"C0C680","龜山","121.378336","25.030231","桃園市","08","龜山區","034"
"C0A870","五指山","121.600278","25.133889","新北市","06","汐止區","014"
"C0C650","平鎮","121.206389","24.899444","桃園市","08","平鎮區","055"
"C0R220","潮州","120.531972","22.536139","屏東縣","20","潮州鎮","332"
"C0A530","坪林","121.701531","24.939975","新北市","06","坪林區","053"
"C0X140","西港","120.195083","23.127417","臺南市","04","西港區","256"
"C0R600","舊泰武","120.656922","22.58995","屏東縣","20","泰武鄉","318"
"C0V710","苓雅","120.322583","22.624528","高雄市","05","苓雅區","323"
"C0G870","芳苑","120.311861","23.924","彰化縣","14","芳苑鄉","149"
"C0R550","新埤","120.574833","22.469778","屏東縣","20","新埤鄉","336"
"C0F0E0","南湖圈谷A","121.436489","24.365503","臺中市","02","和平區","104"
"C0E820","獅潭","120.911972","24.541028","苗栗縣","11","獅潭鄉","095"
"C0Z320","清水林道","121.180172","23.273047","花蓮縣","21","卓溪鄉","207"
"C0V210","復興","120.797778","23.224167","高雄市","05","桃源區","353"
"C0K450","大埤","120.4234","23.647817","雲林縣","16","大埤鄉","199"
"C0R160","鹽埔新圍","120.522697","22.741342","屏東縣","20","鹽埔鄉","301"
"C0V680","仁武","120.339667","22.702861","高雄市","05","仁武區","306"
"C0F9L0","后里","120.7215","24.312111","臺中市","02","后里區","111"
"C0M820","達邦","120.741403","23.455769","嘉義縣","17","阿里山鄉","208"
"C0F9S0","烏日","120.615917","24.108833","臺中市","02","烏日區","137"
"C0O840","王爺宮","120.392758","23.223828","臺南市","04","六甲區","243"
"C0R530","林邊","120.502083","22.432667","屏東縣","20","林邊鄉","340"
"C0A660","瑞芳","121.792639","25.114861","新北市","06","瑞芳區","018"
"C0A890","雙溪","121.856056","25.037861","新北市","06","雙溪區","024"
"C0T9H0","加路蘭山","121.519219","23.684706","花蓮縣","21","豐濱鄉","188"
"C0O980","新市","120.290417","23.063556","臺南市","04","新市區","263"
"C0T9I0","豐濱","121.506678","23.585708","花蓮縣","21","豐濱鄉","188"
"C0V760","橋頭","120.297694","22.759583","高雄市","05","橋頭區","299"
"C0AG90","中和","121.482222","24.994472","新北市","06","中和區","048"
"C0R570","麟洛","120.519139","22.652556","屏東縣","20","麟洛鄉","317"
"C0O900","善化","120.289444","23.114444","臺南市","04","善化區","255"
"C0AD00","三芝","121.493361","25.259639","新北市","06","三芝區","002"
"C0A920","富貴角","121.557278","25.265556","新北市","06","石門區","001"
"C0X260","後壁","120.354211","23.368094","臺南市","04","後壁區","230"
"C0V700","三民","120.303278","22.646917","高雄市","05","三民區","314"
"C0K250","崙背","120.310833","23.7575","雲林縣","16","崙背鄉","181"
"C0K550","蔦松","120.221625","23.516064","雲林縣","16","水林鄉","204"
"C0AH00","汐止","121.650556","25.068667","新北市","06","汐止區","014"
"C0Z300","東里","121.297364","23.270336","花蓮縣","21","富里鄉","241"
"C0I410","名間","120.693306","23.838817","南投縣","13","名間鄉","173"
"C0X080","佳里","120.136667","23.175","臺南市","04","佳里區","250"
"C0I480","梅峰","121.165414","24.087056","南投縣","13","仁愛鄉","122"
"C0V250","甲仙","120.5825","23.081667","高雄市","05","甲仙區","251"
"C0M410","馬頭山","120.573611","23.326389","嘉義縣","17","大埔鄉","233"
"C0A860","大坪","121.62475","25.167694","新北市","06","萬里區","005"
"C0G730","二林","120.367928","23.905067","彰化縣","14","二林鎮","155"
"C0O950","安南","120.136667","23.078333","臺南市","04","安南區","265"
"C0U940","羅東","121.741144","24.683636","宜蘭縣","07","羅東鎮","086"
"C0F9Z0","雪山東峰A","121.263286","24.390581","臺中市","02","和平區","104"
"C0R350","貓鼻頭","120.727792","21.923578","屏東縣","20","恆春鎮","350"
"C0V260","月眉","120.531778","22.972778","高雄市","05","杉林區","269"
"C0V730","大寮","120.387667","22.607389","高雄市","05","大寮區","320"
"C0U650","玉蘭","121.578889","24.677222","宜蘭縣","07","大同鄉","081"
"C0H990","昆陽","121.265361","24.123139","南投縣","13","仁愛鄉","122"
"C0E420","竹南","120.880833","24.710833","苗栗縣","11","竹南鎮","079"
"C0F9K0","大安","120.579972","24.347444","臺中市","02","大安區","107"
"C0ACA0","新莊","121.438528","25.05325","新北市","06","新莊區","033"
"C0D660","新竹市東區","120.978742","24.800436","新竹市","15","東區","070"
"C0AH90","福山植物園","121.573147","24.762506","新北市","06","烏來區","061"
"C0S900","蘭嶼高中","121.504119","22.050931","臺東縣","22","蘭嶼鄉","351"
"C0W150","金寧","118.320831","24.459339","金門縣","99","金寧鄉","999"
"C0E540","後龍","120.775556","24.608056","苗栗縣","11","後龍鎮","091"
"C0T9F0","水璉","121.534167","23.798889","花蓮縣","21","壽豐鄉","161"
"C0F000","大肚","120.564","24.154667","臺中市","02","大肚區","127"
"C0W170","東引","120.475308","26.360539","連江縣","99","東引鄉","999"
"C0K410","北港","120.283672","23.575803","雲林縣","16","北港鎮","203"
"C0C480","桃園","121.315044","24.994256","桃園市","08","桃園區","042"
"C0R140","瑪家","120.678889","22.684722","屏東縣","20","瑪家鄉","308"
"C0Z150","吉安光華","121.587003","23.932733","花蓮縣","21","吉安鄉","154"
"C0S830","長濱","121.403889","23.288611","臺東縣","22","長濱鄉","227"
"C0D390","關西","121.165694","24.800111","新竹縣","10","關西鎮","068"
"C0V720","林園","120.386556","22.509583","高雄市","05","林園區","335"
"C0V640","湖內","120.236444","22.888889","高雄市","05","湖內區","285"
"C0S840","南田","120.881944","22.291944","臺東縣","22","達仁鄉","337"
"C0X180","山上","120.355194","23.077444","臺南市","04","山上區","260"
"C0H9A0","神木村","120.835553","23.534519","南投縣","13","信義鄉","175"
"C0UA60","樟樹山","121.775067","24.415731","宜蘭縣","07","南澳鄉","093"
"CM0030","花博外埔","120.674517","24.324586","臺中市","02","外埔區","110"
"C0E430","南庄","120.992083","24.603167","苗栗縣","11","南庄鄉","092"
"C0A980","社子","121.461389","25.111389","臺北市","01","士林區","007"
"C0I460","南投","120.687331","23.911469","南投縣","13","南投市","160"
"C0F930","大甲","120.632361","24.349917","臺中市","02","大甲區","105"
"C0C670","龍潭","121.213194","24.871833","桃園市","08","龍潭區","062"
"C0O990","媽廟","120.285431","22.993514","臺南市","04","歸仁區","271"
"C0M760","民雄","120.420331","23.553497","嘉義縣","17","民雄鄉","213"
"C0K500","元長","120.306892","23.651544","雲林縣","16","元長鄉","197"
"C0I010","廬山","121.173333","24.035","南投縣","13","仁愛鄉","122"
"C0A9F0","內湖","121.567222","25.081206","臺北市","01","內湖區","021"
"C0A940","金山","121.635556","25.225278","新北市","06","金山區","003"
"C0U980","坪林石牌","121.76575","24.866578","宜蘭縣","07","頭城鎮","051"
"C0R190","赤山","120.60625","22.594139","屏東縣","20","萬巒鄉","319"
"C0F9A0","中竹林","120.743333","24.105556","臺中市","02","太平區","130"
"C0AH70","松山","121.542203","25.050492","臺北市","01","松山區","031"
"C0T9D0","和中","121.732861","24.268567","花蓮縣","21","秀林鄉","108"
"C0E520","大湖","120.862694","24.4167","苗栗縣","11","大湖鄉","103"
"C0O930","玉井","120.452472","23.127833","臺南市","04","玉井區","254"
"C0S740","池上","121.201667","23.121389","臺東縣","22","池上鄉","257"
"C0T870","鯉魚潭","121.500806","23.937444","花蓮縣","21","壽豐鄉","161"
"C0C460","復興","121.344094","24.822","桃園市","08","復興區","067"
"C0I390","仁愛","121.124056","24.023903","南投縣","13","仁愛鄉","122"
"C0B020","基隆嶼","121.775678","25.1932","基隆市","03","中正區","011"
"C0F860","梨山","121.237667","24.245","臺中市","02","和平區","104"
"C0U890","三星","121.644819","24.669917","宜蘭縣","07","三星鄉","084"
"C0G800","埔鹽","120.423583","24.002167","彰化縣","14","埔鹽鄉","151"
"C0F850","東勢","120.824917","24.248194","臺中市","02","東勢區","113"
"C0AH50","林口","121.372611","25.073953","新北市","06","林口區","016"
"C0C620","蘆竹","121.2575","25.086111","桃園市","08","蘆竹區","020"
"C0X290","北門","120.117367","23.269517","臺南市","04","北門區","237"
"C0Z160","鳳林","121.445278","23.747917","花蓮縣","21","鳳林鎮","184"
"C0M650","朴子","120.230928","23.436364","嘉義縣","17","朴子市","222"
"C0AD40","土城","121.436917","24.974944","新北市","06","土城區","049"
"C0R540","佳冬","120.544222","22.421194","屏東縣","20","佳冬鄉","341"
"C0R420","牡丹池山","120.832528","22.169583","屏東縣","20","牡丹鄉","347"
"C0K480","莿桐","120.494247","23.762947","雲林縣","16","莿桐鄉","185"
"C0A570","桶後","121.589639","24.850056","新北市","06","烏來區","061"
"C0E830","苑裡","120.644883","24.441458","苗栗縣","11","苑裡鎮","102"
"C0H890","埔里","120.944278","23.973944","南投縣","13","埔里鎮","147"
"C0M640","中埔","120.514797","23.427144","嘉義縣","17","中埔鄉","224"
"C0S770","大溪山","120.935278","22.48","臺東縣","22","太麻里鄉","312"
"C0M660","溪口","120.395439","23.605872","嘉義縣","17","溪口鄉","205"
"C0X230","鹽水","120.239506","23.274339","臺南市","04","鹽水區","234"
"C0S910","蘭嶼燈塔","121.487072","22.084864","臺東縣","22","蘭嶼鄉","351"
"C0T900","西林","121.433194","23.813667","花蓮縣","21","萬榮鄉","166"
"C0B010","七堵","121.708897","25.096608","基隆市","03","七堵區","012"
"C0D580","寶山","121.016769","24.736722","新竹縣","10","寶山鄉","076"
"C0UA10","鴛鴦湖","121.404039","24.592053","宜蘭縣","07","大同鄉","081"
"C0R490","九如","120.4825","22.742278","屏東縣","20","九如鄉","302"
"C0X250","新營","120.308586","23.312447","臺南市","04","新營區","235"
"C0R640","東港","120.432703","22.464244","屏東縣","20","東港鎮","339"
"C0V440","鳳山","120.348056","22.648611","高雄市","05","鳳山區","321"
"C0S790","金崙","120.958889","22.54","臺東縣","22","太麻里鄉","312"
"C0D570","香山","120.897256","24.74865","新竹市","15","香山區","069"
"C0Z280","德武","121.402597","23.476069","花蓮縣","21","玉里鎮","221"
"C0V770","大社","120.338583","22.731944","高雄市","05","大社區","304"
"C0E810","西湖","120.740278","24.564417","苗栗縣","11","西湖鄉","097"
"C0Z070","舞鶴","121.365833","23.469722","花蓮縣","21","瑞穗鄉","209"
"C0K470","林內","120.601508","23.750436","雲林縣","16","林內鄉","186"
"C0A550","泰平","121.815278","24.973056","新北市","06","雙溪區","024"
"C0V650","彌陀","120.238278","22.785583","高雄市","05","彌陀區","298"
"C0E730","頭份","120.904167","24.69","苗栗縣","11","頭份市","999"
"C0G750","竹塘","120.374339","23.848356","彰化縣","14","竹塘鄉","172"
"C0H9C0","合歡山","121.264083","24.144778","南投縣","13","仁愛鄉","122"
"C0V790","萬山","120.68","22.907694","高雄市","05","茂林區","278"
"C0M710","東石","120.145722","23.460653","嘉義縣","17","東石鄉","216"
"C0U780","五結","121.790222","24.688722","宜蘭縣","07","五結鄉","082"
"C0Z270","蕃薯寮","121.531975","23.740156","花蓮縣","21","壽豐鄉","161"
"C0U760","東澳","121.824986","24.523767","宜蘭縣","07","南澳鄉","093"
"C0V810","左營","120.27685","22.676689","高雄市","05","左營區","311"
"C0D590","新豐","120.969","24.872436","新竹縣","10","新豐鄉","058"
"C0UA30","白嶺","121.510844","24.529611","宜蘭縣","07","大同鄉","081"
"C0A9C0","天母","121.528939","25.119253","臺北市","01","士林區","007"
"C0I080","信義","120.842778","23.691389","南投縣","13","信義鄉","175"
"C0V490","新興","120.290583","22.629111","高雄市","05","新興區","324"
"C0Z250","瑞穗林道","121.298764","23.494642","花蓮縣","21","卓溪鄉","207"
"C0UA00","土場","121.487153","24.578356","宜蘭縣","07","大同鄉","081"
"C0X310","七股","120.078164","23.149036","臺南市","04","七股區","253"
"C0K520","雲林東勢","120.244675","23.676692","雲林縣","16","東勢鄉","192"
"C0E870","高鐵苗栗","120.817906","24.609","苗栗縣","11","後龍鎮","091"
"C0K280","四湖","120.217222","23.631111","雲林縣","16","四湖鄉","195"
"C0U990","員山","121.714269","24.746147","宜蘭縣","07","員山鄉","074"
"C0M800","茶山","120.656664","23.300847","嘉義縣","17","阿里山鄉","208"
"C0G860","社頭","120.578083","23.899417","彰化縣","14","社頭鄉","163"
"C0Z200","萬榮","121.411969","23.711022","花蓮縣","21","鳳林鎮","184"
"C0M700","竹崎","120.547378","23.527931","嘉義縣","17","竹崎鄉","215"
"C0M850","表湖","120.633564","23.243628","嘉義縣","17","大埔鄉","233"
"C0A970","三貂角","121.993889","25.009444","新北市","06","貢寮區","027"
"C0UA20","多加屯","121.365011","24.3704","宜蘭縣","07","大同鄉","081"
"C0V740","旗山","120.475528","22.890389","高雄市","05","旗山區","283"
"C0K440","二崙","120.400811","23.77455","雲林縣","16","二崙鄉","180"
"C0F0A0","雪山圈谷A","121.228197","24.390375","臺中市","02","和平區","104"
"C0G790","花壇","120.544056","24.017778","彰化縣","14","花壇鄉","146"
"C0F9V0","新社","120.8075","24.201583","臺中市","02","新社區","119"
"C0I360","水里","120.841658","23.814322","南投縣","13","水里鄉","168"
"C0R370","佳樂水","120.836667","21.994167","屏東縣","20","滿州鄉","348"
"C0M810","里佳","120.708528","23.390872","嘉義縣","17","阿里山鄉","208"
"C0AC80","文山","121.567528","25.004083","臺北市","01","文山區","356"
"C0K490","古坑","120.551619","23.65605","雲林縣","16","古坑鄉","196"
"C0S810","東河","121.298333","22.973611","臺東縣","22","東河鄉","264"
"C0R580","南州","120.494694","22.487694","屏東縣","20","南州鄉","338"
"C0Z330","安通山","121.340419","23.292536","花蓮縣","21","玉里鎮","221"
"C0X050","東河","120.377492","23.298339","臺南市","04","東山區","236"
"C0G660","溪湖","120.471056","23.95175","彰化縣","14","溪湖鎮","157"
"C0E590","通霄","120.696444","24.473639","苗栗縣","11","通霄鎮","098"
"C0M780","鹿草","120.300231","23.413075","嘉義縣","17","鹿草鄉","226"
"C0D540","橫山","121.108733","24.712925","新竹縣","10","橫山鄉","078"
"C0F9Q0","外埔","120.697472","24.349556","臺中市","02","外埔區","110"
"C0W140","金沙","118.400617","24.489931","金門縣","99","金沙鎮","999"
"C0K420","西螺","120.459253","23.80215","雲林縣","16","西螺鎮","182"
"C0AC70","信義","121.556372","25.039606","臺北市","01","信義區","038"
"C0Z180","新城","121.596386","24.041264","花蓮縣","21","新城鄉","136"
"C0U720","南山","121.373333","24.439167","宜蘭縣","07","大同鄉","081"
"C0I520","玉山風口","120.947853","23.472294","南投縣","13","信義鄉","175"
"C0AD10","八里","121.395306","25.15225","新北市","06","八里區","009"
"C0F0C0","中坑","120.895153","24.250283","臺中市","02","和平區","104"
"C0X150","安定","120.219972","23.104417","臺南市","04","安定區","261"
"C0M720","番路","120.546028","23.466408","嘉義縣","17","番路鄉","220"
"C0X120","麻豆","120.2405","23.185056","臺南市","04","麻豆區","247"
"C0V450","鳳森","120.3845","22.546944","高雄市","05","小港區","330"
"C0Z050","佳心","121.205061","23.347464","花蓮縣","21","卓溪鄉","207"
"C0R280","檳榔","120.828758","22.077883","屏東縣","20","滿州鄉","348"
"C0E530","三義","120.757778","24.412778","苗栗縣","11","三義鄉","106"
"C0R100","尾寮山","120.675806","22.834889","屏東縣","20","三地門鄉","291"
"C0E610","馬都安","120.921944","24.453056","苗栗縣","11","泰安鄉","101"
"C0I490","萬大林道","121.083267","23.930008","南投縣","13","仁愛鄉","122"
"C0V610","梓官","120.25925","22.762444","高雄市","05","梓官區","303"
"C0T790","大禹嶺","121.307833","24.187944","花蓮縣","21","秀林鄉","108"
"C0I090","鳳凰","120.779167","23.729722","南投縣","13","鹿谷鄉","183"
"C0Z310","清水斷崖","121.680972","24.2201","花蓮縣","21","秀林鄉","108"
"C0C700","中壢","121.248156","24.979428","桃園市","08","中壢區","043"
"C0S700","知本","120.997583","22.686667","臺東縣","22","卑南鄉","289"
"C0X240","關子嶺","120.499931","23.332933","臺南市","04","白河區","228"
"C0T9G0","鳳林山","121.411994","23.737072","花蓮縣","21","鳳林鎮","184"
"C0U860","頭城","121.822586","24.855031","宜蘭縣","07","頭城鎮","051"
"C0M790","新港","120.3376","23.555011","嘉義縣","17","新港鄉","211"
"C0U520","雙連埤","121.633056","24.754722","宜蘭縣","07","員山鄉","074"
"C0E850","大河","120.94055","24.619833","苗栗縣","11","三灣鄉","088"
"C0W130","花嶼","119.314667","23.401778","澎湖縣","23","望安鄉","231"
"C0E750","苗栗","120.816444","24.566667","苗栗縣","11","苗栗市","096"
"C0T9B0","水源","121.529167","23.993611","花蓮縣","21","秀林鄉","108"
"C0R400","楓港","120.684722","22.191667","屏東縣","20","枋山鄉","346"
"C0F9X0","大雅(中科園區)","120.616239","24.217056","臺中市","02","大雅區","121"
"C0F9R0","龍井","120.520833","24.186278","臺中市","02","龍井區","115"
"C0G650","員林","120.577528","23.948333","彰化縣","14","員林市","156"
"C0R130","阿禮","120.735556","22.744444","屏東縣","20","霧臺鄉","292"
"C0K530","臺西","120.189422","23.703283","雲林縣","16","臺西鄉","187"
"C0K580","高鐵雲林","120.409817","23.739206","雲林縣","16","虎尾鎮","190"
"C0V660","岡山","120.286889","22.798844","高雄市","05","岡山區","294"
"C0UA50","西帽山","121.794436","24.557164","宜蘭縣","07","南澳鄉","093"
"C0AH30","五分山","121.772586","25.073047","新北市","06","瑞芳區","018"
"C0G780","秀水","120.495722","24.035917","彰化縣","14","秀水鄉","144"
"C0F0D0","審馬陣A","121.412122","24.383461","臺中市","02","和平區","104"
"C0C590","觀音","121.145111","25.028861","桃園市","08","觀音區","032"
"C0K291","宜梧","120.1612","23.538014","雲林縣","16","口湖鄉","201"
"C0T960","光復","121.416839","23.662497","花蓮縣","21","光復鄉","194"
"C0D480","打鐵坑","121.142611","24.85175","新竹縣","10","新埔鎮","063"
"C0M830","山美","120.660108","23.385575","嘉義縣","17","阿里山鄉","208"
"C0E780","銅鑼","120.782639","24.491528","苗栗縣","11","銅鑼鄉","100"
"C0K510","水林","120.237839","23.574658","雲林縣","16","水林鄉","204"
"C0S730","綠島","121.467267","22.669025","臺東縣","22","綠島鄉","315"
"C0G850","田中","120.580444","23.858722","彰化縣","14","田中鎮","170"
"C0V750","路竹","120.251361","22.856639","高雄市","05","路竹區","288"
"C0V360","內門","120.458333","22.976944","高雄市","05","內門區","270"
"C0U600","礁溪","121.757397","24.819336","宜蘭縣","07","礁溪鄉","065"
"C0U910","冬山","121.7855","24.635528","宜蘭縣","07","冬山鄉","087"
"C0D650","湖口","121.035417","24.906556","新竹縣","10","湖口鄉","059"
"C0R380","枋寮","120.581611","22.371194","屏東縣","20","枋寮鄉","358"
"C0V630","茄萣","120.174583","22.908444","高雄市","05","茄萣區","286"
"C0G820","田尾","120.501389","23.903417","彰化縣","14","田尾鄉","167"
"C0R590","里港","120.486528","22.780972","屏東縣","20","里港鄉","295"
"C0A9E0","士林","121.494792","25.092031","臺北市","01","士林區","007"
"C0R480","長治","120.534611","22.694833","屏東縣","20","長治鄉","307"
"C0X300","鹿寮","120.469225","23.387811","臺南市","04","白河區","228"
"C0U970","大福","121.805683","24.802436","宜蘭縣","07","壯圍鄉","072"
"C0M750","布袋","120.159667","23.382611","嘉義縣","17","布袋鎮","225"
"C0D550","雪霸","121.107917","24.528722","新竹縣","10","五峰鄉","089"
"C0C630","大溪","121.256944","24.884722","桃園市","08","大溪區","060"
"C0I110","竹山","120.677778","23.764722","南投縣","13","竹山鎮","178"
"C0V370","古亭坑","120.393889","22.895","高雄市","05","田寮區","284"
"C0A540","四堵","121.737519","24.894394","新北市","06","坪林區","053"
"C0H950","中寮","120.758528","23.886278","南投縣","13","中寮鄉","159"
"C0R360","墾丁","120.794167","21.947778","屏東縣","20","恆春鎮","350"
"C0O960","崎頂","120.361194","22.961306","臺南市","04","龍崎區","273"
"C0AH10","永和","121.499889","25.013028","新北市","06","永和區","045"
"C0X210","白河","120.406328","23.349228","臺南市","04","白河區","228"
"C0D430","峨眉","121.009083","24.692389","新竹縣","10","峨眉鄉","083"
"C0AD30","蘆洲","121.464056","25.088528","新北市","06","蘆洲區","023"
"C0R240","來義","120.617056","22.529111","屏東縣","20","萬巒鄉","319"
"C0U960","翠峰湖","121.599858","24.51265","宜蘭縣","07","大同鄉","081"
"C0T9E0","大坑","121.573839","23.882433","花蓮縣","21","壽豐鄉","161"
